{"features":[{"geometry":{"coordinates":[8.3717616,47.391823],"type":"Point"},"type":"Feature","properties":{"osm_id":80581065,"osm_type":"W","extent":[8.371346,47.391927,8.372259,47.3915843],"country":"Switzerland","osm_key":"highway","city":"Bergdietikon","osm_value":"track","postcode":"8962","name":"Im Ried","state":"Aargau"}},{"geometry":{"coordinates":[8.3894037,47.3910481],"type":"Point"},"type":"Feature","properties":{"osm_id":573380243,"osm_type":"N","country":"Switzerland","osm_key":"highway","city":"Bergdietikon","street":"Bergstrasse","osm_value":"bus_stop","postcode":"8962","name":"Bergli","state":"Aargau"}},{"geometry":{"coordinates":[8.37615996129568,47.393619349999994],"type":"Point"},"type":"Feature","properties":{"osm_id":493680623,"osm_type":"W","extent":[8.3760732,47.3936956,8.3762636,47.393515],"country":"Switzerland","osm_key":"leisure","city":"Bergdietikon","street":"Schürmattstrasse","osm_value":"playground","postcode":"8962","name":"alter Kindergarten Kindhausen","state":"Aargau"}},{"geometry":{"coordinates":[8.3806819,47.395547],"type":"Point"},"type":"Feature","properties":{"osm_id":35480216,"osm_type":"W","extent":[8.3784129,47.3973231,8.3823881,47.3931031],"country":"Switzerland","osm_key":"highway","city":"Bergdietikon","osm_value":"residential","postcode":"8962","name":"Hinterweidstrasse","state":"Aargau"}},{"geometry":{"coordinates":[8.3858041,47.3897513],"type":"Point"},"type":"Feature","properties":{"osm_id":236483012,"osm_type":"W","extent":[8.3854453,47.3901297,8.3858273,47.3893191],"country":"Switzerland","osm_key":"highway","city":"Bergdietikon","osm_value":"residential","postcode":"8962","name":"Schulstrasse","state":"Aargau"}},{"geometry":{"coordinates":[8.390684,47.3932435],"type":"Point"},"type":"Feature","properties":{"osm_id":35542707,"osm_type":"W","extent":[8.3904555,47.3934193,8.3909457,47.393077],"country":"Switzerland","osm_key":"highway","city":"Bergdietikon","osm_value":"residential","postcode":"8962","name":"Baltenschwilerstrasse","state":"Aargau"}},{"geometry":{"coordinates":[8.3754621,47.3971345],"type":"Point"},"type":"Feature","properties":{"osm_id":35479111,"osm_type":"W","extent":[8.3743559,47.3978132,8.3768012,47.3959793],"country":"Switzerland","osm_key":"highway","city":"Bergdietikon","osm_value":"residential","postcode":"8962","name":"Gyrhaldenstrasse","state":"Aargau"}},{"geometry":{"coordinates":[8.3947206,47.3793654],"type":"Point"},"type":"Feature","properties":{"osm_id":360169950,"osm_type":"W","extent":[8.3947206,47.3802137,8.3950772,47.3793654],"country":"Switzerland","osm_key":"highway","city":"Bergdietikon","osm_value":"primary","postcode":"8962","name":"Bernstrasse","state":"Aargau"}},{"geometry":{"coordinates":[8.3873701,47.3920712],"type":"Point"},"type":"Feature","properties":{"osm_id":313963231,"osm_type":"W","extent":[8.385051,47.3929172,8.3895582,47.3911193],"country":"Switzerland","osm_key":"waterway","city":"Bergdietikon","osm_value":"stream","postcode":"8962","name":"Dönibach","state":"Aargau"}}],"type":"FeatureCollection"}